[
  {
    "name": "ROOTS le petit bar",
    "type": "бар",
    "address": "ул. Блохина, 3/1",
    "lat": 59.952147,
    "lng": 30.297823,
    "isoDate": "2025-10-28",
    "displayDate": "28 октября 2025",
    "desc": "Французский камерный бар.",
    "link": "https://sobaka.ru/bars/roots-le-petit-bar"
  },
  {
    "name": "HOOKAH PLACE",
    "type": "кальянная",
    "address": "Полтавская ул., 8",
    "lat": 59.936012,
    "lng": 30.360087,
    "isoDate": "2025-11-05",
    "displayDate": "5 ноября 2025",
    "desc": "Премиум кальянная."
  },
  {
    "name": "FRANK",
    "type": "ресторан",
    "address": "ул. Рубинштейна, 29/28",
    "lat": 59.929241,
    "lng": 30.345012,
    "isoDate": "2025-10-18",
    "displayDate": "18 октября 2025",
    "desc": "Реберная."
  },
  {
    "name": "Ле Бистро Де Ла Ферм",
    "type": "ресторан",
    "address": "Большая Пушкарская ул., 38",
    "lat": 59.967812,
    "lng": 30.316712,
    "isoDate": "2025-10-20",
    "displayDate": "20 октября 2025",
    "desc": "Французская фермерская кухня."
  },
  {
    "name": "Ингрия",
    "type": "ресторан",
    "address": "наб. реки Смоленки, 14",
    "lat": 59.943218,
    "lng": 30.257012,
    "isoDate": "2025-10-15",
    "displayDate": "15 октября 2025",
    "desc": "Северная кухня."
  },
  {
    "name": "The Legends",
    "type": "бар",
    "address": "Садовая ул., 62",
    "lat": 59.929612,
    "lng": 30.328123,
    "isoDate": "2025-10-10",
    "displayDate": "10 октября 2025",
    "desc": "Рок-бар."
  },
  {
    "name": "Nonino Secret",
    "type": "бар",
    "address": "наб. реки Фонтанки, 30",
    "lat": 59.937198,
    "lng": 30.350012,
    "isoDate": "2025-10-30",
    "displayDate": "30 октября 2025",
    "desc": "Секретный бар на граппе."
  },
  {
    "name": "Tito Bistro",
    "type": "кафе",
    "address": "Итальянская ул., 6",
    "lat": 59.933812,
    "lng": 30.345198,
    "isoDate": "2025-10-25",
    "displayDate": "25 октября 2025",
    "desc": "Грузино-итальянская кухня."
  },
  {
    "name": "Morii",
    "type": "ресторан",
    "address": "Лиговский пр., 271",
    "lat": 59.926987,
    "lng": 30.360123,
    "isoDate": "2025-10-18",
    "displayDate": "18 октября 2025",
    "desc": "Гастрономия с винами."
  },
  {
    "name": "Salty",
    "type": "ресторан",
    "address": "ул. Миргородская, 20",
    "lat": 59.927512,
    "lng": 30.365198,
    "isoDate": "2025-11-03",
    "displayDate": "3 ноября 2025",
    "desc": "Морепродукты."
  },
  {
    "name": "Leopold Brasserie & Pub",
    "type": "ресторан",
    "address": "ул. Рубинштейна, 23",
    "lat": 59.929798,
    "lng": 30.344012,
    "isoDate": "2025-11-01",
    "displayDate": "1 ноября 2025",
    "desc": "Бельгийская брассерия."
  },
  {
    "name": "Эссенция",
    "type": "ресторан",
    "address": "Московский пр., 206",
    "lat": 59.852123,
    "lng": 30.318512,
    "isoDate": "2025-11-01",
    "displayDate": "1 ноября 2025",
    "desc": "Молекулярная кухня."
  },
  {
    "name": "Текстура",
    "type": "кафе",
    "address": "Галерный пр., 5",
    "lat": 59.941012,
    "lng": 30.299012,
    "isoDate": "2025-10-29",
    "displayDate": "29 октября 2025",
    "desc": "Художественная студия-кафе."
  },
  {
    "name": "Винный факультет",
    "type": "бар",
    "address": "ул. Ординарная, 4",
    "lat": 59.960112,
    "lng": 30.298512,
    "isoDate": "2025-10-22",
    "displayDate": "22 октября 2025",
    "desc": "Винный бар."
  },
  {
    "name": "Китайский бар в Доме Мурузи",
    "type": "бар",
    "address": "Литейный пр., 24",
    "lat": 59.943218,
    "lng": 30.348012,
    "isoDate": "2025-11-01",
    "displayDate": "1 ноября 2025",
    "desc": "Китайская закуска."
  },
  {
    "name": "Detstvo Play Cafe",
    "type": "кафе",
    "address": "ул. Марата, 10",
    "lat": 59.930512,
    "lng": 30.353012,
    "isoDate": "2025-11-05",
    "displayDate": "5 ноября 2025",
    "desc": "Семейное кафе."
  },
  {
    "name": "Cyber El",
    "type": "бар",
    "address": "наб. реки Фонтанки, 90",
    "lat": 59.928012,
    "lng": 30.335512,
    "isoDate": "2025-11-08",
    "displayDate": "8 ноября 2025",
    "desc": "Кибер-бар."
  },
  {
    "name": "Луч",
    "type": "бар",
    "address": "ул. Некрасова, 50",
    "lat": 59.934012,
    "lng": 30.345012,
    "isoDate": "2025-11-01",
    "displayDate": "1 ноября 2025",
    "desc": "Коктейльный бар."
  }
]
